[
    {
        "name": "Mount Everest",
        "long": 86.9253,
        "lat": 27.9881,
        "alt": 8848,
        "country": "Nepal",
        "cont": "Asia"
    },
    {
        "name": "K2",
        "long": 76.5136,
        "lat": 35.8819,
        "alt": 8611,
        "country": "Pakistan",
        "cont": "Asia"
    },
    {
        "name": "Kangchenjunga",
        "long": 88.1467,
        "lat": 27.7025,
        "alt": 8586,
        "country": "Nepal, India",
        "cont": "Asia"
    },
    {
        "name": "Lhotse",
        "long": 86.9336,
        "lat": 27.9619,
        "alt": 8516,
        "country": "Nepal",
        "cont": "Asia"
    },
    {
        "name": "Makalu",
        "long": 87.0889,
        "lat": 27.8897,
        "alt": 8485,
        "country": "Nepal",
        "cont": "Asia"
    },
    {
        "name": "Cho Oyu",
        "long": 86.6589,
        "lat": 28.0942,
        "alt": 8188,
        "country": "Nepal, Tibet",
        "cont": "Asia"
    },
    {
        "name": "Dhaulagiri",
        "long": 83.4933,
        "lat": 28.6964,
        "alt": 8167,
        "country": "Nepal",
        "cont": "Asia"
    },
    {
        "name": "Manaslu",
        "long": 84.5594,
        "lat": 28.5506,
        "alt": 8163,
        "country": "Nepal",
        "cont": "Asia"
    },
    {
        "name": "Nanga Parbat",
        "long": 74.5892,
        "lat": 35.2389,
        "alt": 8126,
        "country": "Pakistan",
        "cont": "Asia"
    },
    {
        "name": "Annapurna",
        "long": 83.8203,
        "lat": 28.5961,
        "alt": 8091,
        "country": "Nepal",
        "cont": "Asia"
    },
    {
        "name": "Gasherbrum I",
        "long": 76.6611,
        "lat": 35.7231,
        "alt": 8080,
        "country": "Pakistan, China",
        "cont": "Asia"
    },
    {
        "name": "Broad Peak",
        "long": 76.5686,
        "lat": 35.8092,
        "alt": 8051,
        "country": "Pakistan",
        "cont": "Asia"
    },
    {
        "name": "Gasherbrum II",
        "long": 76.6572,
        "lat": 35.7556,
        "alt": 8035,
        "country": "Pakistan",
        "cont": "Asia"
    },
    {
        "name": "Shishapangma",
        "long": 85.7754,
        "lat": 28.3524,
        "alt": 8027,
        "country": "China",
        "cont": "Asia"
    },
    {
        "name": "Himalchuli",
        "long": 84.6943,
        "lat": 28.4249,
        "alt": 7893,
        "country": "Nepal",
        "cont": "Asia"
    },
    {
        "name": "Ngadi Chuli",
        "long": 84.6678,
        "lat": 28.5392,
        "alt": 7871,
        "country": "Nepal",
        "cont": "Asia"
    },
    {
        "name": "Annapurna II",
        "long": 83.8205,
        "lat": 28.5416,
        "alt": 7937,
        "country": "Nepal",
        "cont": "Asia"
    },
    {
        "name": "Gyachung Kang",
        "long": 86.7856,
        "lat": 28.0988,
        "alt": 7952,
        "country": "Nepal",
        "cont": "Asia"
    },
    {
        "name": "Gasherbrum III",
        "long": 76.6308,
        "lat": 35.7581,
        "alt": 7952,
        "country": "Pakistan",
        "cont": "Asia"
    },
    {
        "name": "Distaghil Sar",
        "long": 75.1594,
        "lat": 36.1369,
        "alt": 7885,
        "country": "Pakistan",
        "cont": "Asia"
    },
    {
        "name": "Nuptse",
        "long": 86.8654,
        "lat": 27.9617,
        "alt": 7864,
        "country": "Nepal",
        "cont": "Asia"
    },
    {
        "name": "Khunyang Chhish",
        "long": 75.1611,
        "lat": 36.2647,
        "alt": 7852,
        "country": "Pakistan",
        "cont": "Asia"
    },
    {
        "name": "Gasherbrum IV",
        "long": 76.6233,
        "lat": 35.7214,
        "alt": 7925,
        "country": "Pakistan",
        "cont": "Asia"
    },
    {
        "name": "Masherbrum (K1)",
        "long": 76.691667,
        "lat": 35.6425,
        "alt": 7821,
        "country": "Pakistan",
        "cont": "Asia"
    },
    {
        "name": "Nanda Devi",
        "long": 79.551111,
        "lat": 30.3725,
        "alt": 7816,
        "country": "India",
        "cont": "Asia"
    },
    {
        "name": "Chomo Lonzo",
        "long": 87.116667,
        "lat": 28.65,
        "alt": 7818,
        "country": "Nepal",
        "cont": "Asia"
    },
    {
        "name": "Batura Sar",
        "long": 74.535556,
        "lat": 36.516667,
        "alt": 7785,
        "country": "Pakistan",
        "cont": "Asia"
    },
    {
        "name": "Kanjut Sar",
        "long": 75.218611,
        "lat": 36.188611,
        "alt": 7760,
        "country": "Pakistan",
        "cont": "Asia"
    },
    {
        "name": "Rakaposhi",
        "long": 74.45,
        "lat": 36.133333,
        "alt": 7788,
        "country": "Pakistan",
        "cont": "Asia"
    },
    {
        "name": "Namcha Barwa",
        "long": 95.0167,
        "lat": 29.6,
        "alt": 7782,
        "country": "China",
        "cont": "Asia"
    },
    {
        "name": "Batura II",
        "long": 74.55,
        "lat": 36.55,
        "alt": 7762,
        "country": "Pakistan",
        "cont": "Asia"
    },
    {
        "name": "Kamet",
        "long": 79.5833,
        "lat": 30.9333,
        "alt": 7756,
        "country": "India",
        "cont": "Asia"
    },
    {
        "name": "Saltoro Kangri",
        "long": 76.6333,
        "lat": 35.4,
        "alt": 7742,
        "country": "Pakistan",
        "cont": "Asia"
    },
    {
        "name": "Batura III",
        "long": 74.5667,
        "lat": 36.55,
        "alt": 7729,
        "country": "Pakistan",
        "cont": "Asia"
    },
    {
        "name": "Jannu",
        "long": 88.05,
        "lat": 27.6833,
        "alt": 7710,
        "country": "Nepal",
        "cont": "Asia"
    },
    {
        "name": "Tirich Mir",
        "long": 71.585,
        "lat": 36.252,
        "alt": 7708,
        "country": "Pakistan",
        "cont": "Asia"
    },
    {
        "name": "Molamenqing",
        "long": 85.811,
        "lat": 28.352,
        "alt": 7543,
        "country": "China",
        "cont": "Asia"
    },
    {
        "name": "Gurla Mandhata",
        "long": 81.267,
        "lat": 30.536,
        "alt": 7694,
        "country": "China",
        "cont": "Asia"
    },
    {
        "name": "Saser Kangri",
        "long": 77.783,
        "lat": 34.115,
        "alt": 7672,
        "country": "India",
        "cont": "Asia"
    },
    {
        "name": "Chogolisa",
        "long": 76.631,
        "lat": 35.645,
        "alt": 7665,
        "country": "Pakistan",
        "cont": "Asia"
    },
    {
        "name": "Kongur Tagh",
        "long": 74.573,
        "lat": 38.220,
        "alt": 7649,
        "country": "China",
        "cont": "Asia"
    },
    {
        "name": "Shispare",
        "lat": 36.1947,
        "long": 74.5572,
        "alt": 7611,
        "country": "Pakistan",
        "cont": "Asia"
    },
    {
        "name": "Silberzacken",
        "lat": -27.6994,
        "long": -68.5619,
        "alt": 6515,
        "country": "Argentina",
        "cont": "South America"
    },
    {
        "name": "Changtse",
        "lat": 28.0225,
        "long": 86.8761,
        "alt": 7543,
        "country": "China",
        "cont": "Asia"
    },
    {
        "name": "Trivor",
        "lat": 36.1622,
        "long": 75.3322,
        "alt": 7728,
        "country": "Pakistan",
        "cont": "Asia"
    },
    {
        "name": "Gangkhar Puensum",
        "lat": 27.6742,
        "long": 90.5111,
        "alt": 7570,
        "country": "Bhutan",
        "cont": "Asia"
    },
    {
        "name": "Gongga Shan",
        "lat": 29.5797,
        "long": 101.9608,
        "alt": 7556,
        "country": "China",
        "cont": "Asia"
    },
    {
        "name": "Annapurna III",
        "lat": 28.587222,
        "long": 83.821111,
        "alt": 7555,
        "country": "Nepal",
        "cont": "Asia"
    },
    {
        "name": "Kula Kangri",
        "lat": 35.821111,
        "long": 82.596944,
        "alt": 7554,
        "country": "China",
        "cont": "Asia"
    },
    {
        "name": "Skyang Kangri",
        "lat": 35.844167,
        "long": 77.4225,
        "alt": 7545,
        "country": "India",
        "cont": "Asia"
    },
    {
        "name": "Liankang Kangri",
        "lat": 33.543611,
        "long": 78.703611,
        "alt": 7254,
        "country": "China",
        "cont": "Asia"
    },
    {
        "name": "Yukshin Gardan Sar",
        "lat": 36.321944,
        "long": 75.165278,
        "alt": 7530,
        "country": "Pakistan",
        "cont": "Asia"
    },
    {
        "name": "Annapurna IV",
        "lat": 28.529444,
        "long": 84.126944,
        "alt": 7525,
        "country": "Nepal",
        "cont": "Asia"
    },
    {
        "name": "Saser Kangri II",
        "lat": 35.723056,
        "long": 77.373889,
        "alt": 7518,
        "country": "India",
        "cont": "Asia"
    },
    {
        "name": "Mamostong Kangri",
        "lat": 35.921389,
        "long": 76.955278,
        "alt": 7516,
        "country": "India",
        "cont": "Asia"
    },
    {
        "name": "Muztagh Ata",
        "lat": 38.277778,
        "long": 75.106389,
        "alt": 7546,
        "country": "China",
        "cont": "Asia"
    },
    {
        "name": "Ismoil Somoni Peak",
        "lat": 39.023056,
        "long": 72.308611,
        "alt": 7495,
        "country": "Tajikistan",
        "cont": "Asia"
    },
    {
        "name": "Saser Kangri III",
        "lat": 35.658333,
        "long": 77.380556,
        "alt": 7495,
        "country": "India",
        "cont": "Asia"
    },
    {
        "name": "Noshaq",
        "lat": 36.483333,
        "long": 71.566667,
        "alt": 7492,
        "country": "Afghanistan",
        "cont": "Asia"
    },
    {
        "name": "Pumari Chhish",
        "lat": 36.0806,
        "long": 75.2258,
        "alt": 7492,
        "country": "Pakistan",
        "cont": "Asia"
    },
    {
        "name": "Passu Sar",
        "lat": 36.5104,
        "long": 74.6492,
        "alt": 7478,
        "country": "Pakistan",
        "cont": "Asia"
    },
    {
        "name": "Jongsong Peak",
        "lat": 27.7939,
        "long": 88.1092,
        "alt": 7462,
        "country": "Nepal",
        "cont": "Asia"
    },
    {
        "name": "Malubiting",
        "lat": 36.2903,
        "long": 74.6503,
        "alt": 7458,
        "country": "Pakistan",
        "cont": "Asia"
    },
    {
        "name": "Gangapurna",
        "lat": 28.5403,
        "long": 83.9267,
        "alt": 7455,
        "country": "Nepal",
        "cont": "Asia"
    },
    {
        "name": "Muchu Chhish (Batura V)",
        "lat": 36.4229,
        "long": 74.5328,
        "alt": 7453,
        "country": "Pakistan",
        "cont": "Asia"
    },
    {
        "name": "Jengish Chokusu",
        "lat": 42.0308,
        "long": 80.1536,
        "alt": 7439,
        "country": "Kyrgyzstan",
        "cont": "Asia"
    },
    {
        "name": "K12",
        "lat": 35.9181,
        "long": 76.5442,
        "alt": 7412,
        "country": "Pakistan",
        "cont": "Asia"
    },
    {
        "name": "Sia Kangri",
        "lat": 34.1338,
        "long": 76.6765,
        "alt": 7422,
        "country": "India",
        "cont": "Asia"
    },
    {
        "name": "Momhil Sar",
        "lat": 36.1779,
        "long": 74.9418,
        "alt": 7342,
        "country": "Pakistan",
        "cont": "Asia"
    },
    {
        "name": "Istor-o-Nal",
        "lat": 36.2402,
        "long": 74.6675,
        "alt": 7403,
        "country": "Pakistan",
        "cont": "Asia"
    },
    {
        "name": "Ghent Kangri",
        "lat": 35.9872,
        "long": 76.9353,
        "alt": 7402,
        "country": "Pakistan",
        "cont": "Asia"
    },
    {
        "name": "Haramosh Peak",
        "lat": 35.8183,
        "long": 74.665,
        "alt": 7409,
        "country": "Pakistan",
        "cont": "Asia"
    },
    {
        "name": "Kabru",
        "lat": 27.6817,
        "long": 88.1264,
        "alt": 7338,
        "country": "India",
        "cont": "Asia"
    },
    {
        "name": "Ultar",
        "lat": 36.4167,
        "long": 74.6667,
        "alt": 7388,
        "country": "Pakistan",
        "cont": "Asia"
    },
    {
        "name": "Rimo I",
        "lat": 35.3381,
        "long": 77.4244,
        "alt": 7385,
        "country": "India",
        "cont": "Asia"
    },
    {
        "name": "Sherpi Kangri",
        "lat": 35.8211,
        "long": 76.9569,
        "alt": 7380,
        "country": "Pakistan",
        "cont": "Asia"
    },
    {
        "name": "Churen Himal",
        "lat": 28.4772,
        "long": 83.6906,
        "alt": 7371,
        "country": "Nepal",
        "cont": "Asia"
    },
    {
        "name": "Labuche Kang",
        "lat": 28.6208,
        "long": 85.8819,
        "alt": 7367,
        "country": "Nepal",
        "cont": "Asia"
    },
    {
        "name": "Kirat Chuli",
        "long": 86.91955,
        "lat": 28.80097,
        "alt": 7360,
        "country": "Nepal",
        "cont": "Asia"
    },
    {
        "name": "Skil Brum",
        "long": 76.01661,
        "lat": 35.87091,
        "alt": 7410,
        "country": "Pakistan",
        "cont": "Asia"
    },
    {
        "name": "Abi Gamin",
        "long": 79.58158,
        "lat": 30.65818,
        "alt": 7355,
        "country": "India",
        "cont": "Asia"
    },
    {
        "name": "Gimmigela Chuli",
        "long": 87.3055,
        "lat": 28.0323,
        "alt": 7350,
        "country": "Nepal",
        "cont": "Asia"
    },
    {
        "name": "Saraghrar",
        "long": 72.90394,
        "lat": 36.13066,
        "alt": 7349,
        "country": "Pakistan",
        "cont": "Asia"
    },
    {
        "name": "Bojohagur Duanasir",
        "long": 74.56846,
        "lat": 36.32878,
        "alt": 7329,
        "country": "Pakistan",
        "cont": "Asia"
    },
    {
        "name": "Chamlang",
        "long": 86.969444,
        "lat": 27.920833,
        "alt": 7321,
        "country": "Nepal",
        "cont": "Asia"
    },
    {
        "name": "Chongtar Kangri",
        "long": 75.300278,
        "lat": 35.861667,
        "alt": 7227,
        "country": "Pakistan",
        "cont": "Asia"
    },
    {
        "name": "Jomolhari / Chomolhari",
        "long": 89.128333,
        "lat": 27.011667,
        "alt": 7326,
        "country": "Bhutan",
        "cont": "Asia"
    },
    {
        "name": "Baltoro Kangri",
        "long": 76.580556,
        "lat": 35.851111,
        "alt": 7312,
        "country": "Pakistan",
        "cont": "Asia"
    },
    {
        "name": "Siguang Ri",
        "long": 86.812222,
        "lat": 28.024167,
        "alt": 6250,
        "country": "Nepal",
        "cont": "Asia"
    },
    {
        "name": "Summa Ri",
        "long": 86.868611,
        "lat": 28.021667,
        "alt": 6627,
        "country": "Nepal",
        "cont": "Asia"
    },
    {
        "name": "The Crown",
        "long": 87.129722,
        "lat": 28.033056,
        "alt": 6620,
        "country": "Nepal",
        "cont": "Asia"
    },
    {
        "name": "Gyala Peri",
        "long": 94.985556,
        "lat": 28.099167,
        "alt": 7294,
        "country": "China",
        "cont": "Asia"
    },
    {
        "name": "Porong Ri",
        "long": 86.854722,
        "lat": 28.052222,
        "alt": 7312,
        "country": "Nepal",
        "cont": "Asia"
    },
    {
        "name": "Baintha Brakk",
        "long": 75.156667,
        "lat": 35.7875,
        "alt": 7285,
        "country": "Pakistan",
        "cont": "Asia"
    },
    {
        "name": "Yutmaru Sar",
        "long": 74.6125,
        "lat": 36.329722,
        "alt": 7320,
        "country": "Pakistan",
        "cont": "Asia"
    },
    {
        "name": "K6",
        "long": 76.260278,
        "lat": 35.431389,
        "alt": 7282,
        "country": "Pakistan",
        "cont": "Asia"
    },
    {
        "name": "Kangpenqing",
        "long": 90.351389,
        "lat": 28.109444,
        "alt": 6852,
        "country": "China",
        "cont": "Asia"
    },
    {
        "name": "Mana Peak",
        "long": 79.557,
        "lat": 30.9504,
        "alt": 7272,
        "country": "India",
        "cont": "Asia"
      },
      {
        "name": "Muztagh Tower",
        "long": 75.094,
        "lat": 36.8558,
        "alt": 7273,
        "country": "Pakistan",
        "cont": "Asia"
      },
      {
        "name": "Diran",
        "long": 74.6225,
        "lat": 36.1575,
        "alt": 7266,
        "country": "Pakistan",
        "cont": "Asia"
      },
      {
        "name": "Apsarasas Kangri",
        "long": 77.4904,
        "lat": 35.8812,
        "alt": 7245,
        "country": "China",
        "cont": "Asia"
      },
      {
        "name": "Langtang Lirung",
        "long": 85.5411,
        "lat": 28.2762,
        "alt": 7234,
        "country": "Nepal",
        "cont": "Asia"
      },
    {
        "name": "Karjiang",
        "long": 90.5333,
        "lat": 28.35,
        "alt": 7221,
        "country": "China",
        "cont": "Asia"
    },
    {
        "name": "Annapurna South",
        "long": 83.8,
        "lat": 28.5667,
        "alt": 7219,
        "country": "Nepal",
        "cont": "Asia"
    },
    {
        "name": "Khartaphu",
        "long": 88.836,
        "lat": 27.637,
        "alt": 7103,
        "country": "Bhutan",
        "cont": "Asia"
    },
    {
        "name": "Tongshanjiabu",
        "long": 90.3333,
        "lat": 28.6,
        "alt": 7034,
        "country": "China",
        "cont": "Asia"
    },
    {
        "name": "Langtang Ri",
        "long": 85.564,
        "lat": 28.312,
        "alt": 7205,
        "country": "Nepal",
        "cont": "Asia"
    },
    {
        "name": "Kangphu Kang",
        "long": 90.355,
        "lat": 27.848,
        "alt": 7200,
        "country": "Bhutan",
        "cont": "Asia"
    },
    {
        "name": "Singhi Kangri",
        "long": 76.963,
        "lat": 35.874,
        "alt": 7422,
        "country": "Pakistan",
        "cont": "Asia"
    },
    {
        "name": "Lupghar Sar",
        "long": 74.45,
        "lat": 36.25,
        "alt": 7200,
        "country": "Pakistan",
        "cont": "Asia"
    },
    {
        "name": "Gurja Himal",
        "long": 83.795,
        "lat": 28.032,
        "alt": 7193,
        "country": "Nepal",
        "cont": "Asia"
    },
    {
        "name": "Melungtse",
        "long": 86.3,
        "lat": 28.3,
        "alt": 7181,
        "country": "Nepal",
        "cont": "Asia"
    },
    {
        "name": "Liushi Shan",
        "long": 113.98,
        "lat": 22.43,
        "alt": 7181,
        "country": "China",
        "cont": "Asia"
    },
    {
        "name": "Baruntse",
        "long": 86.961,
        "lat": 27.881,
        "alt": 7129,
        "country": "Nepal",
        "cont": "Asia"
    },
    {
        "name": "Pumori",
        "long": 86.83,
        "lat": 28.02,
        "alt": 7161,
        "country": "Nepal",
        "cont": "Asia"
    },
    {
        "name": "Hardeol",
        "long": 80.105,
        "lat": 30.4275,
        "alt": 7151,
        "country": "India",
        "cont": "Asia"
    },
    {
        "name": "Gasherbrum V",
        "long": 76.663889,
        "lat": 35.745278,
        "alt": 7147,
        "country": "Pakistan",
        "cont": "Asia"
    },
    {
        "name": "Latok I",
        "long": 75.925556,
        "lat": 35.858611,
        "alt": 7145,
        "country": "Pakistan",
        "cont": "Asia"
    },
    {
        "name": "Nemjung",
        "long": 87.7975,
        "lat": 28.080278,
        "alt": 7140,
        "country": "Nepal",
        "cont": "Asia"
    },
    {
        "name": "Udren Zom",
        "long": 74.851389,
        "lat": 36.251944,
        "alt": 7134,
        "country": "Pakistan",
        "cont": "Asia"
    },
    {
        "name": "Chaukhamba",
        "long": 79.218611,
        "lat": 30.268611,
        "alt": 7138,
        "country": "India",
        "cont": "Asia"
    },
    {
        "name": "Nun Kun",
        "long": 76.580556,
        "lat": 33.194722,
        "alt": 7135,
        "country": "India",
        "cont": "Asia"
    },
    {
        "name": "Tilicho Peak",
        "long": 83.804,
        "lat": 28.641,
        "alt": 7134,
        "country": "Nepal",
        "cont": "Asia"
    },
    {
        "name": "Gauri Sankar",
        "long": 86.068,
        "lat": 27.972,
        "alt": 7134,
        "country": "Nepal",
        "cont": "Asia"
    },
    {
        "name": "Lenin Peak",
        "long": 72.968,
        "lat": 39.335,
        "alt": 7134,
        "country": "Kyrgyzstan/Tajikistan",
        "cont": "Asia"
    },
    {
        "name": "Bularung Sar",
        "long": 75.45,
        "lat": 36.065,
        "alt": 7200,
        "country": "Pakistan",
        "cont": "Asia"
    },
    {
        "name": "Api",
        "long": 81.298,
        "lat": 30.87,
        "alt": 7132,
        "country": "Nepal",
        "cont": "Asia"
    },
    {
        "name": "Teri Kang",
        "long": 76.9514,
        "lat": 32.9728,
        "alt": 7465,
        "country": "China",
        "cont": "Asia"
    },
    {
        "name": "Pauhunri",
        "long": 88.0931,
        "lat": 28.2911,
        "alt": 7128,
        "country": "India",
        "cont": "Asia"
    },
    {
        "name": "Trisul",
        "long": 79.6714,
        "lat": 30.2383,
        "alt": 7120,
        "country": "India",
        "cont": "Asia"
    },
    {
        "name": "Korzhenevskaya",
        "long": 72.0872,
        "lat": 39.0492,
        "alt": 7105,
        "country": "Tajikistan",
        "cont": "Asia"
    },
    {
        "name": "Lunpo Gangri",
        "long": 85.7542,
        "lat": 28.1242,
        "alt": 7167,
        "country": "China",
        "cont": "Asia"
    },
    {
        "name": "Satopanth",
        "long": 79.9389,
        "lat": 30.8908,
        "alt": 7075,
        "country": "India",
        "cont": "Asia"
    },
    {
        "name": "Tirsuli",
        "long": 79.9272,
        "lat": 30.4656,
        "alt": 7074,
        "country": "India",
        "cont": "Asia"
    },
    {
        "name": "Dunagiri",
        "long": 79.8911,
        "lat": 30.3617,
        "alt": 7066,
        "country": "India",
        "cont": "Asia"
    },
    {
        "name": "Kangto",
        "long": 92.4044,
        "lat": 27.7892,
        "alt": 7060,
        "country": "India",
        "cont": "Asia"
    },
    {
        "name": "Nyegyi Kansang",
        "long": 85.4403,
        "lat": 28.8047,
        "alt": 7047,
        "country": "Nepal",
        "cont": "Asia"
    },
    {
        "name": "Chomolhari Kang",
        "long": 89.1339,
        "lat": 27.4844,
        "alt": 7042,
        "country": "Bhutan",
        "cont": "Asia"
    },
    {
        "name": "Salasungo",
        "long": 81.49027778,
        "lat": 30.67055556,
        "alt": 6727,
        "country": "Nepal",
        "cont": "Asia"
    },
    {
        "name": "Link Sar",
        "long": 75.09416667,
        "lat": 36.1025,
        "alt": 7041,
        "country": "Pakistan",
        "cont": "Asia"
    },
    {
        "name": "Kezhen Peak",
        "long": 74.515,
        "lat": 40.28916667,
        "alt": 7227,
        "country": "China",
        "cont": "Asia"
    },
    {
        "name": "Shah Dhar",
        "long": 73.92166667,
        "lat": 34.88083333,
        "alt": 7492,
        "country": "Pakistan",
        "cont": "Asia"
    },
    {
        "name": "Saipal",
        "long": 81.11722222,
        "lat": 29.97111111,
        "alt": 7031,
        "country": "Nepal",
        "cont": "Asia"
    },
    {
        "name": "Padmanabh",
        "long": 78.54472222,
        "lat": 31.92416667,
        "alt": 7151,
        "country": "India",
        "cont": "Asia"
    },
    {
        "name": "Spantik",
        "long": 75.11305556,
        "lat": 36.22361111,
        "alt": 7027,
        "country": "Pakistan",
        "cont": "Asia"
    },
    {
        "name": "Khan Tengri",
        "long": 86.873,
        "lat": 42.21,
        "alt": 7010,
        "country": "Kazakhstan/Kyrgyzstan",
        "cont": "Asia"
    },
    {
        "name": "Machapuchare",
        "long": 83.9533,
        "lat": 28.4958,
        "alt": 6993,
        "country": "Nepal",
        "cont": "Asia"
    },
    {
        "name": "Laila Peak (Haramosh Valley)",
        "long": 75.1167,
        "lat": 35.6833,
        "alt": 6985,
        "country": "Pakistan",
        "cont": "Asia"
    },
    {
        "name": "Kang Guru",
        "long": 84.2389,
        "lat": 28.0542,
        "alt": 6981,
        "country": "Nepal",
        "cont": "Asia"
    },
    {
        "name": "Gasherbrum VI",
        "long": 76.6572,
        "lat": 35.7372,
        "alt": 6872,
        "country": "Pakistan",
        "cont": "Asia"
    },
    {
        "name": "Karun Kuh",
        "long": 50.7056,
        "lat": 31.3922,
        "alt": 4387,
        "country": "Iran",
        "cont": "Asia"
    },
    {
        "name": "Avicenna Peak",
        "long": 72.833,
        "lat": 38.9,
        "alt": 4970,
        "country": "Tajikistan",
        "cont": "Asia"
    },
    {
        "name": "Ulugh Muztagh",
        "long": 75.168,
        "lat": 36.994,
        "alt": 6973,
        "country": "China",
        "cont": "Asia"
    },
    {
        "name": "Aconcagua",
        "long": -70.015,
        "lat": -32.653,
        "alt": 6962,
        "country": "Argentina",
        "cont": "South America"
    },
    {
        "name": "Sangemarmar Sar",
        "long": 75.098,
        "lat": 36.362,
        "alt": 7410,
        "country": "Pakistan",
        "cont": "Asia"
    },
    {
        "name": "Kedarnath (mountain)",
        "long": 79.083,
        "lat": 30.738,
        "alt": 6940,
        "country": "India",
        "cont": "Asia"
    },
    {
        "name": "K7",
        "long": 75.153,
        "lat": 36.251,
        "alt": 6934,
        "country": "Pakistan",
        "cont": "Asia"
    },
    {
        "name": "Panchchuli",
        "long": 80.011,
        "lat": 30.255,
        "alt": 6904,
        "country": "India",
        "cont": "Asia"
    },
    {
        "name": "Thalay Sagar",
        "long": 79.566,
        "lat": 30.803,
        "alt": 6904,
        "country": "India",
        "cont": "Asia"
    },
    {
        "name": "Lunkho e Dosare",
        "long": 75.427,
        "lat": 36.553,
        "alt": 7180,
        "country": "Pakistan",
        "cont": "Asia"
    },
    {
        "name": "Lunag Ri",
        "long": 86.983,
        "lat": 28.4,
        "alt": 6907,
        "country": "Nepal",
        "cont": "Asia"
    },
    {
        "name": "Ojos del Salado",
        "long": -68.482,
        "lat": -27.109,
        "alt": 6893,
        "country": "Argentina/Chile",
        "cont": "South America"
    },
    {
        "name": "Siniolchu",
        "long": 88.08333,
        "lat": 27.66667,
        "alt": 6888,
        "country": "India",
        "cont": "Asia"
    },
    {
        "name": "Kanjiroba",
        "long": 82.84444,
        "lat": 29.86306,
        "alt": 6883,
        "country": "Nepal",
        "cont": "Asia"
    },
    {
        "name": "Bairiga",
        "long": 76.9206,
        "lat": 34.4117,
        "alt": 6270,
        "country": "India",
        "cont": "Asia"
    },
    {
        "name": "Koyo Zom",
        "long": 72.6,
        "lat": 36.31667,
        "alt": 6872,
        "country": "Pakistan",
        "cont": "Asia"
    },
    {
        "name": "Nanda Kot",
        "long": 79.963,
        "lat": 30.182,
        "alt": 6861,
        "country": "India",
        "cont": "Asia"
    },
    {
        "name": "Kubi Gangri",
        "long": 91.982,
        "lat": 29.978,
        "alt": 6728,
        "country": "China",
        "cont": "Asia"
    },
    {
        "name": "Angel Sar",
        "long": 74.687,
        "lat": 36.118,
        "alt": 7060,
        "country": "Pakistan",
        "cont": "Asia"
    },
    {
        "name": "Bhagirathi Parbat I",
        "long": 79.142,
        "lat": 30.975,
        "alt": 6856,
        "country": "India",
        "cont": "Asia"
    },
    {
        "name": "Jethi Bahurani",
        "long": 77.226,
        "lat": 31.768,
        "alt": 6850,
        "country": "India",
        "cont": "Asia"
    },
    {
        "name": "Chongra Peak",
        "long": 78.449107,
        "lat": 30.306538,
        "alt": 6830,
        "country": "Nepal",
        "cont": "Asia"
    },
    {
        "name": "Chomo Yummo",
        "long": 87.123608,
        "lat": 28.056414,
        "alt": 7326,
        "country": "Nepal",
        "cont": "Asia"
    },
    {
        "name": "Reo Purgyil",
        "long": 78.546917,
        "lat": 31.161312,
        "alt": 6816,
        "country": "India",
        "cont": "Asia"
    },
    {
        "name": "Ama Dablam",
        "long": 86.856944,
        "lat": 27.861944,
        "alt": 6812,
        "country": "Nepal",
        "cont": "Asia"
    },
    {
        "name": "Monte Pissis",
        "long": -68.820278,
        "lat": -27.766389,
        "alt": 6793,
        "country": "Argentina",
        "cont": "South America"
    },
    {
        "name": "Kangtega",
        "long": 86.7758,
        "lat": 27.7889,
        "alt": 6782,
        "country": "Nepal",
        "cont": "Asia"
    },
    {
        "name": "Biarchedi",
        "long": 74.7533,
        "lat": 35.9056,
        "alt": 6422,
        "country": "Pakistan",
        "cont": "Asia"
    },
    {
        "name": "Huascarán Sur",
        "long": -77.5328,
        "lat": -9.1256,
        "alt": 6768,
        "country": "Peru",
        "cont": "South America"
    },
    {
        "name": "Cerro Bonete",
        "long": -68.8244,
        "lat": -27.0828,
        "alt": 5004,
        "country": "Argentina",
        "cont": "South America"
    },
    {
        "name": "Nevado Tres Cruces",
        "long": -69.7689,
        "lat": -27.1097,
        "alt": 6749,
        "country": "Chile",
        "cont": "South America"
    },
    {
        "name": "Kawagarbo",
        "long": 98.817,
        "lat": 28.514,
        "alt": 6740,
        "country": "China",
        "cont": "Asia"
    },
    {
        "name": "Llullaillaco",
        "long": -68.535,
        "lat": -24.721,
        "alt": 6739,
        "country": "Argentina/Chile",
        "cont": "South America"
    },
    {
        "name": "Cho Polu",
        "long": 87.031,
        "lat": 28.052,
        "alt": 6734,
        "country": "China",
        "cont": "Asia"
    },
    {
        "name": "Kangju Kangri",
        "long": 76.684,
        "lat": 35.619,
        "alt": 6721,
        "country": "Pakistan/China",
        "cont": "Asia"
    },
    {
        "name": "Changla",
        "long": 77.465,
        "lat": 33.748,
        "alt": 6721,
        "country": "Pakistan",
        "cont": "Asia"
    },
    {
        "name": "Mercedario",
        "long": -70.109,
        "lat": -31.982,
        "alt": 6770,
        "country": "Argentina",
        "cont": "South America"
    },
    {
        "name": "Mount Pandim",
        "long": 88.199,
        "lat": 27.512,
        "alt": 6691,
        "country": "India",
        "cont": "Asia"
    },
    {
        "name": "Num Ri",
        "long": 86.915,
        "lat": 28.986,
        "alt": 6942,
        "country": "Nepal",
        "cont": "Asia"
    },
    {
        "name": "Lungser Kangri",
        "long": 77.262,
        "lat": 33.301,
        "alt": 6666,
        "country": "India",
        "cont": "Asia"
    },
    {
        "name": "Meru Peak",
        "long": 87.979,
        "lat": 28.602,
        "alt": 6660,
        "country": "Nepal",
        "cont": "Asia"
    },
    {
        "name": "Gul Lasht Zom",
        "long": 71.862,
        "lat": 36.301,
        "alt": 6606,
        "country": "Pakistan",
        "cont": "Asia"
    },
    {
        "name": "Huascarán Norte",
        "long": -77.605,
        "lat": -9.127,
        "alt": 6655,
        "country": "Peru",
        "cont": "South America"
    },
    {
        "name": "Khumbutse",
        "long": 86.869,
        "lat": 27.817,
        "alt": 6636,
        "country": "Nepal",
        "cont": "Asia"
    },
    {
        "name": "Mount Kailash",
        "long": 81.313,
        "lat": 31.067,
        "alt": 6638,
        "country": "China",
        "cont": "Asia"
    },
    {
        "name": "Yerupajá",
        "long": -76.974,
        "lat": -10.225,
        "alt": 6617,
        "country": "Peru",
        "cont": "South America"
    },
    {
        "name": "Nevado Tres Cruces Central",
        "long": -69.7939,
        "lat": -27.0981,
        "alt": 6749,
        "country": "Chile",
        "cont": "South America"
    },
    {
        "name": "Thamserku",
        "long": 86.7203,
        "lat": 27.8167,
        "alt": 6608,
        "country": "Nepal",
        "cont": "Asia"
    },
    {
        "name": "Geladaindong Peak",
        "long": 94.8975,
        "lat": 29.5919,
        "alt": 6621,
        "country": "China",
        "cont": "Asia"
    },
    {
        "name": "Incahuasi",
        "long": -68.3558,
        "lat": -27.0364,
        "alt": 6621,
        "country": "Argentina/Chile",
        "cont": "South America"
    },
    {
        "name": "Pangpoche",
        "long": 86.8122,
        "lat": 27.8936,
        "alt": 6620,
        "country": "Nepal",
        "cont": "Asia"
    },
    {
        "name": "Manirang",
        "long": 78.061,
        "lat": 32.319,
        "alt": 6.593,
        "country": "India",
        "cont": "Asia"
    },
    {
        "name": "Nilkantha",
        "long": 79.732,
        "lat": 30.557,
        "alt": 6.596,
        "country": "India",
        "cont": "Asia"
    },
    {
        "name": "Phuparash Peak",
        "long": 83.842,
        "lat": 28.282,
        "alt": 6.440,
        "country": "Nepal",
        "cont": "Asia"
    },
    {
        "name": "Sickle Moon Peak",
        "long": 87.796,
        "lat": 28.240,
        "alt": 6.650,
        "country": "Nepal",
        "cont": "Asia"
    },
    {
        "name": "Tupungato",
        "long": -69.768,
        "lat": -33.422,
        "alt": 6.570,
        "country": "Argentina",
        "cont": "South America"
    },
    {
        "name": "Buni Zom",
        "long": 73.746,
        "lat": 36.242,
        "alt": 6.621,
        "country": "Pakistan",
        "cont": "Asia"
    },
    {
        "name": "Nevado Sajama",
        "long": -68.879,
        "lat": -18.108,
        "alt": 6.542,
        "country": "Bolivia",
        "cont": "South America"
    },
    {
        "name": "Ghamubar Zom",
        "long": 72.186,
        "lat": 36.101,
        "alt": 6.523,
        "country": "Pakistan",
        "cont": "Asia"
    },
    {
        "name": "Singu Chuli",
        "long": 83.828,
        "lat": 28.503,
        "alt": 6.501,
        "country": "Nepal",
        "cont": "Asia"
    },
    {
        "name": "Taboche",
        "long": 86.769,
        "lat": 27.917,
        "alt": 6.495,
        "country": "Nepal",
        "cont": "Asia"
    },
    {
        "name": "Cerro El Muerto",
        "long": -66.227,
        "lat": -29.525,
        "alt": 6.710,
        "country": "Argentina",
        "cont": "South America"
    },
    {
        "name": "Mera Peak",
        "long": 86.903,
        "lat": 27.710,
        "alt": 6.476,
        "country": "Nepal",
        "cont": "Asia"
    },
    {
        "name": "Hiunchuli",
        "long": 83.820,
        "lat": 28.480,
        "alt": 6.441,
        "country": "Nepal",
        "cont": "Asia"
    },
    {
        "name": "Cholatse",
        "long": 86.7677,
        "lat": 27.9211,
        "alt": 6440,
        "country": "Nepal",
        "cont": "Asia"
    },
    {
        "name": "Illimani",
        "long": -68.5458,
        "lat": -16.6331,
        "alt": 6438,
        "country": "Bolivia",
        "cont": "South America"
    },
    {
        "name": "Ancohuma",
        "long": -68.2133,
        "lat": -15.8628,
        "alt": 6427,
        "country": "Bolivia",
        "cont": "South America"
    },
    {
        "name": "Coropuna",
        "long": -72.6572,
        "lat": -15.5369,
        "alt": 6425,
        "country": "Peru",
        "cont": "South America"
    },
    {
        "name": "Antofalla",
        "long": -67.8333,
        "lat": -25.4333,
        "alt": 6427,
        "country": "Argentina",
        "cont": "South America"
    },
    {
        "name": "Kang Yatze",
        "long": 77.375,
        "lat": 33.9964,
        "alt": 6400,
        "country": "India",
        "cont": "Asia"
    },
    {
        "name": "Huandoy",
        "long": -77.5958,
        "lat": -9.115,
        "alt": 6395,
        "country": "Peru",
        "cont": "South America"
    },
    {
        "name": "Ausangate",
        "long": -71.416667,
        "lat": -13.8,
        "alt": 6372,
        "country": "Peru",
        "cont": "SA"
    },
    {
        "name": "Chapaev Peak",
        "long": 78.516667,
        "lat": 42.85,
        "alt": 6371,
        "country": "Tajikistan",
        "cont": "AS"
    },
    {
        "name": "Illampu",
        "long": -68.183333,
        "lat": -15.866667,
        "alt": 6368,
        "country": "Bolivia",
        "cont": "SA"
    },
    {
        "name": "Kusum Kangguru",
        "long": 86.3,
        "lat": 27.716667,
        "alt": 6367,
        "country": "Nepal",
        "cont": "AS"
    },
    {
        "name": "Kinnaur Kailash",
        "long": 78.166667,
        "lat": 31.55,
        "alt": 6349,
        "country": "India",
        "cont": "AS"
    },
    {
        "name": "Parinaquta",
        "long": -70.1967,
        "lat": -15.3306,
        "alt": 5669,
        "country": "Bolivia",
        "cont": "South America"
    },
    {
        "name": "Siula Grande",
        "long": -77.575,
        "lat": -9.1192,
        "alt": 6344,
        "country": "Peru",
        "cont": "South America"
    },
    {
        "name": "Bamba Dhura",
        "long": 80.0678,
        "lat": 29.3814,
        "alt": 6412,
        "country": "Nepal",
        "cont": "Asia"
    },
    {
        "name": "Chinchey",
        "long": -77.4625,
        "lat": -8.8803,
        "alt": 6345,
        "country": "Peru",
        "cont": "South America"
    },
    {
        "name": "Ampato",
        "long": -71.885,
        "lat": -15.4856,
        "alt": 6288,
        "country": "Peru",
        "cont": "South America"
    },
    {
        "name": "Amne Machin",
        "long": 100.299,
        "lat": 34.88,
        "alt": 6282,
        "country": "China",
        "cont": "Asia"
    },
    {
        "name": "Pomerape",
        "long": -68.116,
        "lat": -18.123,
        "alt": 6282,
        "country": "Bolivia/Chile",
        "cont": "South America"
    },
    {
        "name": "Palcaraju",
        "long": -77.608,
        "lat": -9.133,
        "alt": 6274,
        "country": "Peru",
        "cont": "South America"
    },
    {
        "name": "Salcantay",
        "long": -72.526,
        "lat": -13.374,
        "alt": 6271,
        "country": "Peru",
        "cont": "South America"
    },
    {
        "name": "Chimborazo",
        "long": -78.817,
        "lat": -1.469,
        "alt": 6267,
        "country": "Ecuador",
        "cont": "South America"
    },
    {
        "name": "Mount Siguniang",
        "long": 102.990833,
        "lat": 31.092778,
        "alt": 6250,
        "country": "China",
        "cont": "Asia"
    },
    {
        "name": "Grid Nie Mountain",
        "long": 97.976667,
        "lat": 30.424167,
        "alt": 6224,
        "country": "China",
        "cont": "Asia"
    },
    {
        "name": "Yuzhu Peak",
        "long": 97.175278,
        "lat": 28.401389,
        "alt": 6178,
        "country": "China",
        "cont": "Asia"
    },
    {
        "name": "Genyen Massif",
        "long": 101.716944,
        "lat": 29.037778,
        "alt": 6206,
        "country": "China",
        "cont": "Asia"
    },
    {
        "name": "Kongde Ri",
        "long": 86.711667,
        "lat": 27.845833,
        "alt": 6187,
        "country": "Nepal",
        "cont": "Asia"
    },
    {
        "name": "Aucanquilcha",
        "long": -68.4333,
        "lat": -21.22,
        "alt": 6176,
        "country": "Chile",
        "cont": "South America"
    },
    {
        "name": "Imja Tse",
        "long": 86.87,
        "lat": 27.91,
        "alt": 6189,
        "country": "Nepal",
        "cont": "Asia"
    },
    {
        "name": "Denali (Mount McKinley)",
        "long": -151.01,
        "lat": 63.07,
        "alt": 6190,
        "country": "United States",
        "cont": "North America"
    },
    {
        "name": "Stok Kangri",
        "long": 77.58,
        "lat": 33.98,
        "alt": 6153,
        "country": "India",
        "cont": "Asia"
    },
    {
        "name": "Lobuche",
        "long": 86.82,
        "lat": 27.95,
        "alt": 6119,
        "country": "Nepal",
        "cont": "Asia"
    },
    {
        "name": "Marmolejo",
        "long": -70.0748,
        "lat": -32.9899,
        "alt": 6108,
        "country": "Chile",
        "cont": "South America"
    },
    {
        "name": "Laila Peak (Hushe Valley)",
        "long": 75.0767,
        "lat": 35.8747,
        "alt": 6096,
        "country": "Pakistan",
        "cont": "Asia"
    },
    {
        "name": "Pisang Peak",
        "long": 84.0261,
        "lat": 28.6077,
        "alt": 6091,
        "country": "Nepal",
        "cont": "Asia"
    },
    {
        "name": "Huayna Potosí",
        "long": -68.1238,
        "lat": -16.2624,
        "alt": 6088,
        "country": "Bolivia",
        "cont": "South America"
    },
    {
        "name": "Aracar",
        "long": -67.7749,
        "lat": -24.2535,
        "alt": 6082,
        "country": "Argentina",
        "cont": "South America"
    },
    {
        "name": "Chachakumani",
        "long": -67.4133,
        "lat": -16.3267,
        "alt": 6074,
        "country": "Bolivia",
        "cont": "SA"
    },
    {
        "name": "Chachani",
        "long": -71.5278,
        "lat": -16.1897,
        "alt": 6075,
        "country": "Peru",
        "cont": "SA"
    },
    {
        "name": "Mianzimu",
        "long": 38.6325,
        "lat": -8.9667,
        "alt": 2565,
        "country": "Tanzania",
        "cont": "AF"
    },
    {
        "name": "Acotango",
        "long": -68.5258,
        "lat": -18.2694,
        "alt": 6052,
        "country": "Bolivia/Chile",
        "cont": "SA"
    },
    {
        "name": "Socompa",
        "long": -68.0822,
        "lat": -24.4067,
        "alt": 6051,
        "country": "Argentina/Chile",
        "cont": "SA"
    },
    {
        "name": "Minglik Sar",
        "long": 74.9000,
        "lat": 36.2500,
        "alt": 6050,
        "country": "Pakistan",
        "cont": "Asia"
    },
    {
        "name": "Acamarachi",
        "long": -68.2447,
        "lat": -23.3047,
        "alt": 6046,
        "country": "Chile",
        "cont": "South America"
    },
    {
        "name": "Tocllaraju",
        "long": -77.6247,
        "lat": -8.8806,
        "alt": 6034,
        "country": "Peru",
        "cont": "South America"
    },
    {
        "name": "Shayaz",
        "long": 74.6756,
        "lat": 34.1719,
        "alt": 6000,
        "country": "India",
        "cont": "Asia"
    },
    {
        "name": "Hualca Hualca",
        "long": -71.5328,
        "lat": -15.8306,
        "alt": 6025,
        "country": "Peru",
        "cont": "South America"
    },
    {
        "name": "Uturunku",
        "long": -67.1875,
        "lat": -22.2658,
        "alt": 6008,
        "country": "Bolivia",
        "cont": "South America"
    },
    {
        "name": "Mitre Peak",
        "long": 76.5031,
        "lat": 35.7224,
        "alt": 6010,
        "country": "Pakistan",
        "cont": "Asia"
    },
    {
        "name": "Laila Peak",
        "long": 74.575,
        "lat": 35.837,
        "alt": 6096,
        "country": "Pakistan",
        "cont": "Asia"
      },
      {
        "name": "Mount Logan",
        "long": -140.397,
        "lat": 60.567,
        "alt": 5959,
        "country": "Canada",
        "cont": "North America"
      },
      {
        "name": "Alpamayo",
        "long": -77.533,
        "lat": -8.923,
        "alt": 5947,
        "country": "Peru",
        "cont": "South America"
      },
      {
        "name": "Cerro Lípez",
        "long": -67.834,
        "lat": -22.838,
        "alt": 5916,
        "country": "Bolivia",
        "cont": "South America"
      },
      {
        "name": "Licancabur",
        "long": -67.893,
        "lat": -22.83,
        "alt": 5916,
        "country": "Chile",
        "cont": "South America"
      },
      {
        "name": "Falak Sar",
        "long": 72.5778,
        "lat": 34.8109,
        "alt": 5918,
        "country": "Pakistan",
        "cont": "Asia"
      },
      {
        "name": "Cotopaxi",
        "long": -78.4361,
        "lat": -0.6836,
        "alt": 5897,
        "country": "Ecuador",
        "cont": "South America"
      },
      {
        "name": "Mount Kilimanjaro",
        "long": 37.3455,
        "lat": -3.0758,
        "alt": 5895,
        "country": "Tanzania",
        "cont": "Africa"
      },
      {
        "name": "Hkakabo Razi",
        "long": 97.3622,
        "lat": 28.3353,
        "alt": 5881,
        "country": "Myanmar",
        "cont": "Asia"
      },
      {
        "name": "San José",
        "long": -70.0767,
        "lat": -33.1406,
        "alt": 5856,
        "country": "Argentina",
        "cont": "South America"
      },
      {
        "name": "Nevado Mariposa",
        "long": -69.8472,
        "lat": -18.0322,
        "alt": 5426,
        "country": "Chile",
        "cont": "South America"
      },
      {
        "name": "El Misti",
        "long": -71.4075,
        "lat": -16.2925,
        "alt": 5822,
        "country": "Peru",
        "cont": "South America"
      },
      {
        "name": "Altun Shan",
        "long": 89.1667,
        "lat": 39.1667,
        "alt": 6118,
        "country": "China",
        "cont": "Asia"
      },
      {
        "name": "Cayambe",
        "long": -78.1667,
        "lat": 0.0297,
        "alt": 5790,
        "country": "Ecuador",
        "cont": "South America"
      },
      {
        "name": "Antisana",
        "long": -78.1412,
        "lat": -0.4807,
        "alt": 5758,
        "country": "Ecuador",
        "cont": "South America"
      },
      {
        "name": "Nevado Pisco",
        "long": -77.6331,
        "lat": -9.0178,
        "alt": 5752,
        "country": "Peru",
        "cont": "South America"
      },
      {
        "name": "Nevado Anallajsi",
        "long": -68.1789,
        "lat": -16.5001,
        "alt": 5675,
        "country": "Bolivia",
        "cont": "South America"
      },
      {
        "name": "Pokalde",
        "long": 86.8203,
        "lat": 27.9157,
        "alt": 5806,
        "country": "Nepal",
        "cont": "Asia"
      },
      {
        "name": "Ubinas",
        "long": -70.9034,
        "lat": -16.3556,
        "alt": 5672,
        "country": "Peru",
        "cont": "South America"
      },
      {
        "name": "Pichu Pichu",
        "long": -71.8386,
        "lat": -16.1925,
        "alt": 5664,
        "country": "Peru",
        "cont": "South America"
      },
      {
        "name": "Mount Elbrus",
        "long": 42.4483,
        "lat": 43.3539,
        "alt": 5642,
        "country": "Russia",
        "cont": "Europe"
      },
      {
        "name": "Mehrbani Peak",
        "long": 74.5517,
        "lat": 36.5208,
        "alt": 6069,
        "country": "Pakistan",
        "cont": "Asia"
      },
      {
        "name": "Pico de Orizaba",
        "long": -97.2664,
        "lat": 19.029,
        "alt": 5636,
        "country": "Mexico",
        "cont": "North America"
      },
      {
        "name": "Mount Damavand",
        "long": 52.1089,
        "lat": 35.9511,
        "alt": 5610,
        "country": "Iran",
        "cont": "Asia"
      },
      {
        "name": "Nevado Mismi",
        "long": -71.925,
        "lat": -15.6442,
        "alt": 5597,
        "country": "Peru",
        "cont": "South America"
      },
      {
        "name": "Jade Dragon Snow Mountain",
        "long": 100.1381,
        "lat": 27.0189,
        "alt": 5596,
        "country": "China",
        "cont": "Asia"
      },
      {
        "name": "Lascar Volcano",
        "long": -67.7292,
        "lat": -23.3736,
        "alt": 5592,
        "country": "Chile",
        "cont": "South America"
      },
      {
        "name": "Mount Xuebaoding",
        "long": 102.999,
        "lat": 30.998,
        "alt": 5588,
        "country": "China",
        "cont": "Asia"
      },
      {
        "name": "Kala Patthar",
        "long": 86.8333,
        "lat": 27.9889,
        "alt": 5545,
        "country": "Nepal",
        "cont": "Asia"
      },
      {
        "name": "Mount Saint Elias",
        "long": -140.91666666666666,
        "lat": 60.29277777777778,
        "alt": 5489,
        "country": "Canada/United States",
        "cont": "North America"
      },
      {
        "name": "Concord Peak",
        "long": -70.03333333333333,
        "lat": -50.983333333333334,
        "alt": 4130,
        "country": "Chile",
        "cont": "South America"
      },
      {
        "name": "Dindaw Razi",
        "long": 97.33805555555556,
        "lat": 28.36388888888889,
        "alt": 4322,
        "country": "Myanmar",
        "cont": "Asia"
      },
      {
        "name": "Machoi Peak",
        "long": 76.84166666666667,
        "lat": 33.46666666666667,
        "alt": 6000,
        "country": "India",
        "cont": "Asia"
      },
      {
        "name": "El Plomo",
        "long": -70.24638888888888,
        "lat": -33.03361111111111,
        "alt": 5424,
        "country": "Chile",
        "cont": "South America"
      },
      {
        "name": "Bogda Feng",
        "long": 87.06888888888889,
        "lat": 43.01611111111111,
        "alt": 5445,
        "country": "China",
        "cont": "Asia"
      },
      {
        "name": "Mount Little Xuebaoding",
        "long": 101.70638888888889,
        "lat": 30.97222222222222,
        "alt": 5588,
        "country": "China",
        "cont": "Asia"
      },
      {
        "name": "Cerro El Plomo",
        "long": -70.24277777777778,
        "lat": -33.04472222222222,
        "alt": 5430,
        "country": "Chile",
        "cont": "South America"
      },
      {
        "name": "Popocatépetl",
        "long": -98.6213888888889,
        "lat": 19.023055555555554,
        "alt": 5426,
        "country": "Mexico",
        "cont": "North America"
      },
      {
        "name": "Kolahoi Peak",
        "long": 74.65361111111111,
        "lat": 34.282222222222224,
        "alt": 5425,
        "country": "India",
        "cont": "Asia"
      },
      {
        "name": "Kolahoi Peak",
        "long": 75.283333,
        "lat": 34.166667,
        "alt": 5425,
        "country": "India",
        "cont": "Asia"
      },
      {
        "name": "Chacaltaya",
        "long": -68.131944,
        "lat": -16.290278,
        "alt": 5421,
        "country": "Bolivia",
        "cont": "South America"
      },
      {
        "name": "Mount Pomiu",
        "long": 141.068333,
        "lat": -4.145833,
        "alt": 5290,
        "country": "Indonesia",
        "cont": "Asia"
      },
      {
        "name": "Ritacuba Blanco",
        "long": -72.298611,
        "lat": 6.483333,
        "alt": 5410,
        "country": "Colombia",
        "cont": "South America"
      },
      {
        "name": "Haba Xueshan",
        "long": 100.045833,
        "lat": 27.256944,
        "alt": 5396,
        "country": "China",
        "cont": "Asia"
      },
      {
        "name": "Nevado del Ruiz",
        "long": -75.3225,
        "lat": 4.8925,
        "alt": 5321,
        "country": "Colombia",
        "cont": "South America"
      },
      {
        "name": "Nevado del Huila",
        "long": -76.033333,
        "lat": 2.93,
        "alt": 5364,
        "country": "Colombia",
        "cont": "South America"
      },
      {
        "name": "El Altar",
        "long": -78.55,
        "lat": -1.666667,
        "alt": 5319,
        "country": "Ecuador",
        "cont": "South America"
      },
      {
        "name": "Mount Foraker",
        "long": -151.405556,
        "lat": 62.960278,
        "alt": 5304,
        "country": "United States",
        "cont": "North America"
      },
      {
        "name": "Mount Haramukh",
        "long": 74.565,
        "lat": 34.308333,
        "alt": 5142,
        "country": "India",
        "cont": "Asia"
      },
      {
        "name": "Maipo",
        "long": -70.0855,
        "lat": -33.7897,
        "alt": 5264,
        "country": "Chile",
        "cont": "South America"
    },
    {
        "name": "Illiniza",
        "long": -78.6667,
        "lat": -0.6583,
        "alt": 5248,
        "country": "Ecuador",
        "cont": "South America"
    },
    {
        "name": "Point 5240",
        "long": 77.39,
        "lat": 34.1467,
        "alt": 5240,
        "country": "India",
        "cont": "Asia"
    },
    {
        "name": "Sirbal Peak",
        "long": 75.1931,
        "lat": 34.3325,
        "alt": 5242,
        "country": "India",
        "cont": "Asia"
    },
    {
        "name": "Sangay",
        "long": -78.3403,
        "lat": -2.0022,
        "alt": 5230,
        "country": "Ecuador",
        "cont": "South America"
    },
    {
        "name": "Iztaccíhuatl",
        "long": -98.635,
        "lat": 19.1797,
        "alt": 5220,
        "country": "Mexico",
        "cont": "North America"
    },
    {
        "name": "Mount Lucania",
        "long": -140.4542,
        "lat": 61.0392,
        "alt": 5260,
        "country": "Canada",
        "cont": "North America"
    },
    {
        "name": "Karakol Peak",
        "long": 78.4378,
        "lat": 42.5217,
        "alt": 5216,
        "country": "Kyrgyzstan",
        "cont": "Asia"
    },
    {
        "name": "Dykh-Tau",
        "long": 43.0789,
        "lat": 43.0744,
        "alt": 5205,
        "country": "Russia",
        "cont": "Europe"
    },
    {
        "name": "Shkhara",
        "long": 43.0167,
        "lat": 43.0278,
        "alt": 5193,
        "country": "Georgia",
        "cont": "Asia"
    },
    {
        "name": "Mount Kenya",
        "long": 37.296,
        "lat": 0.151,
        "alt": 5199,
        "country": "Kenya",
        "cont": "Africa"
      },
      {
        "name": "Malika Parbat",
        "long": 73.534,
        "lat": 35.134,
        "alt": 5290,
        "country": "Pakistan",
        "cont": "Asia"
      },
      {
        "name": "Amarnath Peak",
        "long": 76.823,
        "lat": 34.15,
        "alt": 5185,
        "country": "India",
        "cont": "Asia"
      },
      {
        "name": "Laram Q'awa (Charaña)",
        "long": -68.748,
        "lat": -18.15,
        "alt": 5592,
        "country": "Bolivia",
        "cont": "South America"
      },
      {
        "name": "King Peak",
        "long": -132.499,
        "lat": 60.058,
        "alt": 5184,
        "country": "Canada",
        "cont": "North America"
      },
      {
        "name": "Boris Yeltsin Peak",
        "long": 77.366,
        "lat": 43.53,
        "alt": 5140,
        "country": "Kyrgyzstan",
        "cont": "Asia"
      },
      {
        "name": "Koshtan-Tau",
        "long": 43.263,
        "lat": 43.204,
        "alt": 5151,
        "country": "Russia",
        "cont": "Europe"
      },
      {
        "name": "Mount Agri",
        "long": 43.375,
        "lat": 39.721,
        "alt": 5165,
        "country": "Turkey",
        "cont": "Asia"
      },
      {
        "name": "Mount Stanley",
        "long": 29.5072,
        "lat": 0.4058,
        "alt": 5109,
        "country": "Congo and Uganda",
        "cont": "Africa"
      },
      {
        "name": "Tami Razi",
        "long": 45.961,
        "lat": 36.231,
        "alt": 4695,
        "country": "Iran and Iraq",
        "cont": "Asia"
      },
      {
        "name": "Mount Steele",
        "long": -140.8986,
        "lat": 61.0964,
        "alt": 5073,
        "country": "Canada",
        "cont": "North America"
      },
      {
        "name": "Janga",
        "long": 72.5735,
        "lat": 36.1285,
        "alt": 6425,
        "country": "Pakistan",
        "cont": "Asia"
      },
      {
        "name": "Mount Kazbek",
        "long": 42.698,
        "lat": 42.7035,
        "alt": 5047,
        "country": "Russia and Georgia",
        "cont": "Europe"
      },
      {
        "name": "Tungurahua",
        "long": -78.436,
        "lat": -1.467,
        "alt": 5023,
        "country": "Ecuador",
        "cont": "South America"
      },
      {
        "name": "Carihuairazo",
        "long": -78.202,
        "lat": -1.517,
        "alt": 5018,
        "country": "Ecuador",
        "cont": "South America"
      },
      {
        "name": "Mount Bona",
        "long": -141.7508,
        "lat": 61.3854,
        "alt": 5005,
        "country": "United States",
        "cont": "North America"
      }
]