[
    {
        "name": "Mount Everest",
        "long": 86.9253,
        "lat": 27.9881,
        "alt": 8848,
        "country": "Nepal",
        "cont": "Asia"
    },
    {
        "name": "K2",
        "long": 76.5136,
        "lat": 35.8819,
        "alt": 8611,
        "country": "Pakistan",
        "cont": "Asia"
    },
    {
        "name": "Kangchenjunga",
        "long": 88.1467,
        "lat": 27.7025,
        "alt": 8586,
        "country": "Nepal, India",
        "cont": "Asia"
    },
    {
        "name": "Lhotse",
        "long": 86.9336,
        "lat": 27.9619,
        "alt": 8516,
        "country": "Nepal",
        "cont": "Asia"
    },
    {
        "name": "Makalu",
        "long": 87.0889,
        "lat": 27.8897,
        "alt": 8485,
        "country": "Nepal",
        "cont": "Asia"
    },
    {
        "name": "Cho Oyu",
        "long": 86.6589,
        "lat": 28.0942,
        "alt": 8188,
        "country": "Nepal, Tibet",
        "cont": "Asia"
    },
    {
        "name": "Dhaulagiri",
        "long": 83.4933,
        "lat": 28.6964,
        "alt": 8167,
        "country": "Nepal",
        "cont": "Asia"
    },
    {
        "name": "Manaslu",
        "long": 84.5594,
        "lat": 28.5506,
        "alt": 8163,
        "country": "Nepal",
        "cont": "Asia"
    },
    {
        "name": "Nanga Parbat",
        "long": 74.5892,
        "lat": 35.2389,
        "alt": 8126,
        "country": "Pakistan",
        "cont": "Asia"
    },
    {
        "name": "Annapurna",
        "long": 83.8203,
        "lat": 28.5961,
        "alt": 8091,
        "country": "Nepal",
        "cont": "Asia"
    },
    {
        "name": "Gasherbrum I",
        "long": 76.6611,
        "lat": 35.7231,
        "alt": 8080,
        "country": "Pakistan, China",
        "cont": "Asia"
    },
    {
        "name": "Broad Peak",
        "long": 76.5686,
        "lat": 35.8092,
        "alt": 8051,
        "country": "Pakistan",
        "cont": "Asia"
    },
    {
        "name": "Gasherbrum II",
        "long": 76.6572,
        "lat": 35.7556,
        "alt": 8035,
        "country": "Pakistan",
        "cont": "Asia"
    },
    {
        "name": "Shishapangma",
        "long": 85.7754,
        "lat": 28.3524,
        "alt": 8027,
        "country": "China",
        "cont": "Asia"
    }, {
        "name": "Himalchuli",
        "long": 84.6943,
        "lat": 28.4249,
        "alt": 7893,
        "country": "Nepal",
        "cont": "Asia"
    },
    {
        "name": "Ngadi Chuli",
        "long": 84.6678,
        "lat": 28.5392,
        "alt": 7871,
        "country": "Nepal",
        "cont": "Asia"
    },
    {
        "name": "Annapurna II",
        "long": 83.8205,
        "lat": 28.5416,
        "alt": 7937,
        "country": "Nepal",
        "cont": "Asia"
    },
    {
        "name": "Gyachung Kang",
        "long": 86.7856,
        "lat": 28.0988,
        "alt": 7952,
        "country": "Nepal",
        "cont": "Asia"
    },
    {
        "name": "Gasherbrum III",
        "long": 76.6308,
        "lat": 35.7581,
        "alt": 7952,
        "country": "Pakistan",
        "cont": "Asia"
    },
    {
        "name": "Distaghil Sar",
        "long": 75.1594,
        "lat": 36.1369,
        "alt": 7885,
        "country": "Pakistan",
        "cont": "Asia"
    },
    {
        "name": "Nuptse",
        "long": 86.8654,
        "lat": 27.9617,
        "alt": 7864,
        "country": "Nepal",
        "cont": "Asia"
    },
    {
        "name": "Khunyang Chhish",
        "long": 75.1611,
        "lat": 36.2647,
        "alt": 7852,
        "country": "Pakistan",
        "cont": "Asia"
    },
    {
        "name": "Gasherbrum IV",
        "long": 76.6233,
        "lat": 35.7214,
        "alt": 7925,
        "country": "Pakistan",
        "cont": "Asia"
    },
    {
        "name": "Masherbrum (K1)",
        "long": 76.691667,
        "lat": 35.6425,
        "alt": 7821,
        "country": "Pakistan",
        "cont": "Asia"
      },
      {
        "name": "Nanda Devi",
        "long": 79.551111,
        "lat": 30.3725,
        "alt": 7816,
        "country": "India",
        "cont": "Asia"
      },
      {
        "name": "Chomo Lonzo",
        "long": 87.116667,
        "lat": 28.65,
        "alt": 7818,
        "country": "Nepal",
        "cont": "Asia"
      },
      {
        "name": "Batura Sar",
        "long": 74.535556,
        "lat": 36.516667,
        "alt": 7785,
        "country": "Pakistan",
        "cont": "Asia"
      },
      {
        "name": "Kanjut Sar",
        "long": 75.218611,
        "lat": 36.188611,
        "alt": 7760,
        "country": "Pakistan",
        "cont": "Asia"
      },
      {
        "name": "Rakaposhi",
        "long": 74.45,
        "lat": 36.133333,
        "alt": 7788,
        "country": "Pakistan",
        "cont": "Asia"
      },
      {
        "name": "Namcha Barwa",
        "long": 95.0167,
        "lat": 29.6,
        "alt": 7782,
        "country": "China",
        "cont": "Asia"
      },
      {
        "name": "Batura II",
        "long": 74.55,
        "lat": 36.55,
        "alt": 7762,
        "country": "Pakistan",
        "cont": "Asia"
      },
      {
        "name": "Kamet",
        "long": 79.5833,
        "lat": 30.9333,
        "alt": 7756,
        "country": "India",
        "cont": "Asia"
      },
      {
        "name": "Saltoro Kangri",
        "long": 76.6333,
        "lat": 35.4,
        "alt": 7742,
        "country": "Pakistan",
        "cont": "Asia"
      },
      {
        "name": "Batura III",
        "long": 74.5667,
        "lat": 36.55,
        "alt": 7729,
        "country": "Pakistan",
        "cont": "Asia"
      },
      {
        "name": "Jannu",
        "long": 88.05,
        "lat": 27.6833,
        "alt": 7710,
        "country": "Nepal",
        "cont": "Asia"
      },
      {
        "name": "Tirich Mir",
        "long": 71.585,
        "lat": 36.252,
        "alt": 7708,
        "country": "Pakistan",
        "cont": "Asia"
      },
      {
        "name": "Molamenqing",
        "long": 85.811,
        "lat": 28.352,
        "alt": 7543,
        "country": "China",
        "cont": "Asia"
      },
      {
        "name": "Gurla Mandhata",
        "long": 81.267,
        "lat": 30.536,
        "alt": 7694,
        "country": "China",
        "cont": "Asia"
      },
      {
        "name": "Saser Kangri",
        "long": 77.783,
        "lat": 34.115,
        "alt": 7672,
        "country": "India",
        "cont": "Asia"
      },
      {
        "name": "Chogolisa",
        "long": 76.631,
        "lat": 35.645,
        "alt": 7665,
        "country": "Pakistan",
        "cont": "Asia"
      },
      {
        "name": "Kongur Tagh",
        "long": 74.573,
        "lat": 38.220,
        "alt": 7649,
        "country": "China",
        "cont": "Asia"
      },
      {
        "name": "Shispare",
        "lat": 36.1947,
        "long": 74.5572,
        "alt": 7611,
        "country": "Pakistan",
        "cont": "Asia"
      },
      {
        "name": "Silberzacken",
        "lat": -27.6994,
        "long": -68.5619,
        "alt": 6515,
        "country": "Argentina",
        "cont": "South America"
      },
      {
        "name": "Changtse",
        "lat": 28.0225,
        "long": 86.8761,
        "alt": 7543,
        "country": "China",
        "cont": "Asia"
      },
      {
        "name": "Trivor",
        "lat": 36.1622,
        "long": 75.3322,
        "alt": 7728,
        "country": "Pakistan",
        "cont": "Asia"
      },
      {
        "name": "Gangkhar Puensum",
        "lat": 27.6742,
        "long": 90.5111,
        "alt": 7570,
        "country": "Bhutan",
        "cont": "Asia"
      },
      {
        "name": "Gongga Shan",
        "lat": 29.5797,
        "long": 101.9608,
        "alt": 7556,
        "country": "China",
        "cont": "Asia"
      },
      {
        "name": "Annapurna III",
        "lat": 28.587222,
        "long": 83.821111,
        "alt": 7555,
        "country": "Nepal",
        "cont": "Asia"
    },
    {
        "name": "Kula Kangri",
        "lat": 35.821111,
        "long": 82.596944,
        "alt": 7554,
        "country": "China",
        "cont": "Asia"
    },
    {
        "name": "Skyang Kangri",
        "lat": 35.844167,
        "long": 77.4225,
        "alt": 7545,
        "country": "India",
        "cont": "Asia"
    },
    {
        "name": "Liankang Kangri",
        "lat": 33.543611,
        "long": 78.703611,
        "alt": 7254,
        "country": "China",
        "cont": "Asia"
    },
    {
        "name": "Yukshin Gardan Sar",
        "lat": 36.321944,
        "long": 75.165278,
        "alt": 7530,
        "country": "Pakistan",
        "cont": "Asia"
    },
    {
        "name": "Annapurna IV",
        "lat": 28.529444,
        "long": 84.126944,
        "alt": 7525,
        "country": "Nepal",
        "cont": "Asia"
    },
    {
        "name": "Saser Kangri II",
        "lat": 35.723056,
        "long": 77.373889,
        "alt": 7518,
        "country": "India",
        "cont": "Asia"
    },
    {
        "name": "Mamostong Kangri",
        "lat": 35.921389,
        "long": 76.955278,
        "alt": 7516,
        "country": "India",
        "cont": "Asia"
    },
    {
        "name": "Muztagh Ata",
        "lat": 38.277778,
        "long": 75.106389,
        "alt": 7546,
        "country": "China",
        "cont": "Asia"
    },
    {
        "name": "Ismoil Somoni Peak",
        "lat": 39.023056,
        "long": 72.308611,
        "alt": 7495,
        "country": "Tajikistan",
        "cont": "Asia"
    },
    {
        "name": "Saser Kangri III",
        "lat": 35.658333,
        "long": 77.380556,
        "alt": 7495,
        "country": "India",
        "cont": "Asia"
    },
    {
        "name": "Noshaq",
        "lat": 36.483333,
        "long": 71.566667,
        "alt": 7492,
        "country": "Afghanistan",
        "cont": "Asia"
    },
    {
        "name": "Pumari Chhish",
        "lat": 36.0806,
        "long": 75.2258,
        "alt": 7492,
        "country": "Pakistan",
        "cont": "Asia"
    },
    {
        "name": "Passu Sar",
        "lat": 36.5104,
        "long": 74.6492,
        "alt": 7478,
        "country": "Pakistan",
        "cont": "Asia"
    },
    {
        "name": "Jongsong Peak",
        "lat": 27.7939,
        "long": 88.1092,
        "alt": 7462,
        "country": "Nepal",
        "cont": "Asia"
    },
    {
        "name": "Malubiting",
        "lat": 36.2903,
        "long": 74.6503,
        "alt": 7458,
        "country": "Pakistan",
        "cont": "Asia"
    },
    {
        "name": "Gangapurna",
        "lat": 28.5403,
        "long": 83.9267,
        "alt": 7455,
        "country": "Nepal",
        "cont": "Asia"
    },
    {
        "name": "Muchu Chhish (Batura V)",
        "lat": 36.4229,
        "long": 74.5328,
        "alt": 7453,
        "country": "Pakistan",
        "cont": "Asia"
    },
    {
        "name": "Jengish Chokusu",
        "lat": 42.0308,
        "long": 80.1536,
        "alt": 7439,
        "country": "Kyrgyzstan",
        "cont": "Asia"
    },
    {
        "name": "K12",
        "lat": 35.9181,
        "long": 76.5442,
        "alt": 7412,
        "country": "Pakistan",
        "cont": "Asia"
    },
    {
        "name": "Sia Kangri",
        "lat": 34.1338,
        "long": 76.6765,
        "alt": 7422,
        "country": "India",
        "cont": "Asia"
    },
    {
        "name": "Momhil Sar",
        "lat": 36.1779,
        "long": 74.9418,
        "alt": 7342,
        "country": "Pakistan",
        "cont": "Asia"
    },
    {
        "name": "Istor-o-Nal",
        "lat": 36.2402,
        "long": 74.6675,
        "alt": 7403,
        "country": "Pakistan",
        "cont": "Asia"
    },
    {
        "name": "Ghent Kangri",
        "lat": 35.9872,
        "long": 76.9353,
        "alt": 7402,
        "country": "Pakistan",
        "cont": "Asia"
    },
    {
        "name": "Haramosh Peak",
        "lat": 35.8183,
        "long": 74.665,
        "alt": 7409,
        "country": "Pakistan",
        "cont": "Asia"
    },
    {
        "name": "Kabru",
        "lat": 27.6817,
        "long": 88.1264,
        "alt": 7338,
        "country": "India",
        "cont": "Asia"
    },
    {
        "name": "Ultar",
        "lat": 36.4167,
        "long": 74.6667,
        "alt": 7388,
        "country": "Pakistan",
        "cont": "Asia"
    },
    {
        "name": "Rimo I",
        "lat": 35.3381,
        "long": 77.4244,
        "alt": 7385,
        "country": "India",
        "cont": "Asia"
    },
    {
        "name": "Sherpi Kangri",
        "lat": 35.8211,
        "long": 76.9569,
        "alt": 7380,
        "country": "Pakistan",
        "cont": "Asia"
    },
    {
        "name": "Churen Himal",
        "lat": 28.4772,
        "long": 83.6906,
        "alt": 7371,
        "country": "Nepal",
        "cont": "Asia"
    },
    {
        "name": "Labuche Kang",
        "lat": 28.6208,
        "long": 85.8819,
        "alt": 7367,
        "country": "Nepal",
        "cont": "Asia"
    }
]